{
  "generatedAt": "2026-07-16T19:14:22.521Z",
  "cities": [
    {
      "name": "San Francisco",
      "lat": 37.7749,
      "lon": -122.4194,
      "tempC": 20.8,
      "weatherCode": 0,
      "windKph": 22.4,
      "humidity": 55,
      "observedAt": "2026-07-16T19:00"
    },
    {
      "name": "New York",
      "lat": 40.7128,
      "lon": -74.006,
      "tempC": 32.2,
      "weatherCode": 1,
      "windKph": 19.5,
      "humidity": 49,
      "observedAt": "2026-07-16T19:00"
    },
    {
      "name": "London",
      "lat": 51.5074,
      "lon": -0.1278,
      "tempC": 24.5,
      "weatherCode": 0,
      "windKph": 13,
      "humidity": 47,
      "observedAt": "2026-07-16T19:00"
    },
    {
      "name": "Paris",
      "lat": 48.8566,
      "lon": 2.3522,
      "tempC": 30.8,
      "weatherCode": 3,
      "windKph": 15,
      "humidity": 29,
      "observedAt": "2026-07-16T19:00"
    },
    {
      "name": "Berlin",
      "lat": 52.52,
      "lon": 13.405,
      "tempC": 28.8,
      "weatherCode": 2,
      "windKph": 6.3,
      "humidity": 34,
      "observedAt": "2026-07-16T19:00"
    },
    {
      "name": "Tokyo",
      "lat": 35.6762,
      "lon": 139.6503,
      "tempC": 25.1,
      "weatherCode": 3,
      "windKph": 2.3,
      "humidity": 98,
      "observedAt": "2026-07-16T19:00"
    },
    {
      "name": "Sydney",
      "lat": -33.8688,
      "lon": 151.2093,
      "tempC": 12.2,
      "weatherCode": 51,
      "windKph": 11,
      "humidity": 96,
      "observedAt": "2026-07-16T19:00"
    },
    {
      "name": "São Paulo",
      "lat": -23.5505,
      "lon": -46.6333,
      "tempC": 24,
      "weatherCode": 0,
      "windKph": 7.1,
      "humidity": 36,
      "observedAt": "2026-07-16T19:00"
    },
    {
      "name": "Cape Town",
      "lat": -33.9249,
      "lon": 18.4241,
      "tempC": 12.9,
      "weatherCode": 1,
      "windKph": 3.4,
      "humidity": 95,
      "observedAt": "2026-07-16T19:00"
    },
    {
      "name": "Mumbai",
      "lat": 19.076,
      "lon": 72.8777,
      "tempC": 26.3,
      "weatherCode": 53,
      "windKph": 5.8,
      "humidity": 90,
      "observedAt": "2026-07-16T19:00"
    },
    {
      "name": "Dubai",
      "lat": 25.2048,
      "lon": 55.2708,
      "tempC": 33.2,
      "weatherCode": 0,
      "windKph": 16.2,
      "humidity": 55,
      "observedAt": "2026-07-16T19:00"
    },
    {
      "name": "Reykjavik",
      "lat": 64.1466,
      "lon": -21.9426,
      "tempC": 10.8,
      "weatherCode": 3,
      "windKph": 15.5,
      "humidity": 87,
      "observedAt": "2026-07-16T19:00"
    },
    {
      "name": "Singapore",
      "lat": 1.3521,
      "lon": 103.8198,
      "tempC": 26.3,
      "weatherCode": 3,
      "windKph": 2.6,
      "humidity": 90,
      "observedAt": "2026-07-16T19:00"
    },
    {
      "name": "Mexico City",
      "lat": 19.4326,
      "lon": -99.1332,
      "tempC": 23.1,
      "weatherCode": 1,
      "windKph": 5.3,
      "humidity": 44,
      "observedAt": "2026-07-16T19:00"
    },
    {
      "name": "Moscow",
      "lat": 55.7558,
      "lon": 37.6173,
      "tempC": 13.6,
      "weatherCode": 1,
      "windKph": 7.4,
      "humidity": 61,
      "observedAt": "2026-07-16T19:00"
    },
    {
      "name": "Nairobi",
      "lat": -1.2921,
      "lon": 36.8219,
      "tempC": 19.5,
      "weatherCode": 3,
      "windKph": 4.8,
      "humidity": 67,
      "observedAt": "2026-07-16T19:00"
    }
  ]
}
