{
  "generatedAt": "2026-07-17T08:12:31.292Z",
  "cities": [
    {
      "name": "San Francisco",
      "lat": 37.7749,
      "lon": -122.4194,
      "tempC": 12.8,
      "weatherCode": 0,
      "windKph": 11.5,
      "humidity": 89,
      "observedAt": "2026-07-17T08:00"
    },
    {
      "name": "New York",
      "lat": 40.7128,
      "lon": -74.006,
      "tempC": 20.8,
      "weatherCode": 0,
      "windKph": 8.1,
      "humidity": 75,
      "observedAt": "2026-07-17T08:00"
    },
    {
      "name": "London",
      "lat": 51.5074,
      "lon": -0.1278,
      "tempC": 19,
      "weatherCode": 0,
      "windKph": 7.2,
      "humidity": 64,
      "observedAt": "2026-07-17T08:00"
    },
    {
      "name": "Paris",
      "lat": 48.8566,
      "lon": 2.3522,
      "tempC": 22.1,
      "weatherCode": 3,
      "windKph": 8.6,
      "humidity": 72,
      "observedAt": "2026-07-17T08:00"
    },
    {
      "name": "Berlin",
      "lat": 52.52,
      "lon": 13.405,
      "tempC": 22.1,
      "weatherCode": 80,
      "windKph": 2.4,
      "humidity": 73,
      "observedAt": "2026-07-17T08:00"
    },
    {
      "name": "Tokyo",
      "lat": 35.6762,
      "lon": 139.6503,
      "tempC": 27.2,
      "weatherCode": 1,
      "windKph": 6.2,
      "humidity": 87,
      "observedAt": "2026-07-17T08:00"
    },
    {
      "name": "Sydney",
      "lat": -33.8688,
      "lon": 151.2093,
      "tempC": 13.9,
      "weatherCode": 51,
      "windKph": 6.4,
      "humidity": 89,
      "observedAt": "2026-07-17T08:00"
    },
    {
      "name": "São Paulo",
      "lat": -23.5505,
      "lon": -46.6333,
      "tempC": 13,
      "weatherCode": 0,
      "windKph": 10.1,
      "humidity": 65,
      "observedAt": "2026-07-17T08:00"
    },
    {
      "name": "Cape Town",
      "lat": -33.9249,
      "lon": 18.4241,
      "tempC": 14.8,
      "weatherCode": 3,
      "windKph": 4.7,
      "humidity": 94,
      "observedAt": "2026-07-17T08:00"
    },
    {
      "name": "Mumbai",
      "lat": 19.076,
      "lon": 72.8777,
      "tempC": 29.3,
      "weatherCode": 51,
      "windKph": 9.4,
      "humidity": 76,
      "observedAt": "2026-07-17T08:00"
    },
    {
      "name": "Dubai",
      "lat": 25.2048,
      "lon": 55.2708,
      "tempC": 41.9,
      "weatherCode": 0,
      "windKph": 15.9,
      "humidity": 27,
      "observedAt": "2026-07-17T08:00"
    },
    {
      "name": "Reykjavik",
      "lat": 64.1466,
      "lon": -21.9426,
      "tempC": 10.6,
      "weatherCode": 3,
      "windKph": 15.1,
      "humidity": 94,
      "observedAt": "2026-07-17T08:00"
    },
    {
      "name": "Singapore",
      "lat": 1.3521,
      "lon": 103.8198,
      "tempC": 29.1,
      "weatherCode": 80,
      "windKph": 10.1,
      "humidity": 78,
      "observedAt": "2026-07-17T08:00"
    },
    {
      "name": "Mexico City",
      "lat": 19.4326,
      "lon": -99.1332,
      "tempC": 14.4,
      "weatherCode": 1,
      "windKph": 8.7,
      "humidity": 87,
      "observedAt": "2026-07-17T08:00"
    },
    {
      "name": "Moscow",
      "lat": 55.7558,
      "lon": 37.6173,
      "tempC": 16.5,
      "weatherCode": 1,
      "windKph": 13.9,
      "humidity": 53,
      "observedAt": "2026-07-17T08:00"
    },
    {
      "name": "Nairobi",
      "lat": -1.2921,
      "lon": 36.8219,
      "tempC": 21.3,
      "weatherCode": 3,
      "windKph": 5.4,
      "humidity": 54,
      "observedAt": "2026-07-17T08:00"
    }
  ]
}
