{
  "generatedAt": "2026-07-22T20:54:34.263Z",
  "cities": [
    {
      "name": "San Francisco",
      "lat": 37.7749,
      "lon": -122.4194,
      "tempC": 20.6,
      "weatherCode": 3,
      "windKph": 16.6,
      "humidity": 81,
      "observedAt": "2026-07-22T20:45"
    },
    {
      "name": "New York",
      "lat": 40.7128,
      "lon": -74.006,
      "tempC": 31.5,
      "weatherCode": 1,
      "windKph": 19.4,
      "humidity": 39,
      "observedAt": "2026-07-22T20:45"
    },
    {
      "name": "London",
      "lat": 51.5074,
      "lon": -0.1278,
      "tempC": 21.4,
      "weatherCode": 1,
      "windKph": 15.5,
      "humidity": 61,
      "observedAt": "2026-07-22T20:45"
    },
    {
      "name": "Paris",
      "lat": 48.8566,
      "lon": 2.3522,
      "tempC": 21.7,
      "weatherCode": 3,
      "windKph": 11.4,
      "humidity": 47,
      "observedAt": "2026-07-22T20:45"
    },
    {
      "name": "Berlin",
      "lat": 52.52,
      "lon": 13.405,
      "tempC": 17.2,
      "weatherCode": 3,
      "windKph": 13.8,
      "humidity": 71,
      "observedAt": "2026-07-22T20:45"
    },
    {
      "name": "Tokyo",
      "lat": 35.6762,
      "lon": 139.6503,
      "tempC": 26.3,
      "weatherCode": 0,
      "windKph": 3.2,
      "humidity": 88,
      "observedAt": "2026-07-22T20:45"
    },
    {
      "name": "Sydney",
      "lat": -33.8688,
      "lon": 151.2093,
      "tempC": 9.2,
      "weatherCode": 0,
      "windKph": 8.6,
      "humidity": 82,
      "observedAt": "2026-07-22T20:45"
    },
    {
      "name": "São Paulo",
      "lat": -23.5505,
      "lon": -46.6333,
      "tempC": 25.2,
      "weatherCode": 1,
      "windKph": 8.5,
      "humidity": 38,
      "observedAt": "2026-07-22T20:45"
    },
    {
      "name": "Cape Town",
      "lat": -33.9249,
      "lon": 18.4241,
      "tempC": 13.1,
      "weatherCode": 3,
      "windKph": 17.2,
      "humidity": 81,
      "observedAt": "2026-07-22T20:45"
    },
    {
      "name": "Mumbai",
      "lat": 19.076,
      "lon": 72.8777,
      "tempC": 26.3,
      "weatherCode": 95,
      "windKph": 26.8,
      "humidity": 89,
      "observedAt": "2026-07-22T20:45"
    },
    {
      "name": "Dubai",
      "lat": 25.2048,
      "lon": 55.2708,
      "tempC": 32.1,
      "weatherCode": 0,
      "windKph": 10.2,
      "humidity": 76,
      "observedAt": "2026-07-22T20:45"
    },
    {
      "name": "Reykjavik",
      "lat": 64.1466,
      "lon": -21.9426,
      "tempC": 10.8,
      "weatherCode": 3,
      "windKph": 20.2,
      "humidity": 95,
      "observedAt": "2026-07-22T20:45"
    },
    {
      "name": "Singapore",
      "lat": 1.3521,
      "lon": 103.8198,
      "tempC": 24.6,
      "weatherCode": 3,
      "windKph": 2.3,
      "humidity": 97,
      "observedAt": "2026-07-22T20:45"
    },
    {
      "name": "Mexico City",
      "lat": 19.4326,
      "lon": -99.1332,
      "tempC": 26,
      "weatherCode": 0,
      "windKph": 7.8,
      "humidity": 31,
      "observedAt": "2026-07-22T20:45"
    },
    {
      "name": "Moscow",
      "lat": 55.7558,
      "lon": 37.6173,
      "tempC": 16.9,
      "weatherCode": 1,
      "windKph": 4.3,
      "humidity": 78,
      "observedAt": "2026-07-22T20:45"
    },
    {
      "name": "Nairobi",
      "lat": -1.2921,
      "lon": 36.8219,
      "tempC": 16.1,
      "weatherCode": 3,
      "windKph": 7.5,
      "humidity": 83,
      "observedAt": "2026-07-22T20:45"
    }
  ]
}
