{
  "generatedAt": "2026-07-18T01:24:36.840Z",
  "cities": [
    {
      "name": "San Francisco",
      "lat": 37.7749,
      "lon": -122.4194,
      "tempC": 16.5,
      "weatherCode": 0,
      "windKph": 23.8,
      "humidity": 80,
      "observedAt": "2026-07-18T01:15"
    },
    {
      "name": "New York",
      "lat": 40.7128,
      "lon": -74.006,
      "tempC": 25.3,
      "weatherCode": 2,
      "windKph": 6.4,
      "humidity": 57,
      "observedAt": "2026-07-18T01:15"
    },
    {
      "name": "London",
      "lat": 51.5074,
      "lon": -0.1278,
      "tempC": 18.9,
      "weatherCode": 2,
      "windKph": 13,
      "humidity": 76,
      "observedAt": "2026-07-18T01:15"
    },
    {
      "name": "Paris",
      "lat": 48.8566,
      "lon": 2.3522,
      "tempC": 21.2,
      "weatherCode": 2,
      "windKph": 7,
      "humidity": 61,
      "observedAt": "2026-07-18T01:15"
    },
    {
      "name": "Berlin",
      "lat": 52.52,
      "lon": 13.405,
      "tempC": 20.2,
      "weatherCode": 3,
      "windKph": 10.6,
      "humidity": 79,
      "observedAt": "2026-07-18T01:15"
    },
    {
      "name": "Tokyo",
      "lat": 35.6762,
      "lon": 139.6503,
      "tempC": 26.3,
      "weatherCode": 2,
      "windKph": 4.6,
      "humidity": 87,
      "observedAt": "2026-07-18T01:15"
    },
    {
      "name": "Sydney",
      "lat": -33.8688,
      "lon": 151.2093,
      "tempC": 17.7,
      "weatherCode": 1,
      "windKph": 14.8,
      "humidity": 59,
      "observedAt": "2026-07-18T01:15"
    },
    {
      "name": "São Paulo",
      "lat": -23.5505,
      "lon": -46.6333,
      "tempC": 15.6,
      "weatherCode": 0,
      "windKph": 11.3,
      "humidity": 56,
      "observedAt": "2026-07-18T01:15"
    },
    {
      "name": "Cape Town",
      "lat": -33.9249,
      "lon": 18.4241,
      "tempC": 12.8,
      "weatherCode": 3,
      "windKph": 0.9,
      "humidity": 100,
      "observedAt": "2026-07-18T01:15"
    },
    {
      "name": "Mumbai",
      "lat": 19.076,
      "lon": 72.8777,
      "tempC": 25.5,
      "weatherCode": 80,
      "windKph": 2.9,
      "humidity": 94,
      "observedAt": "2026-07-18T01:15"
    },
    {
      "name": "Dubai",
      "lat": 25.2048,
      "lon": 55.2708,
      "tempC": 31,
      "weatherCode": 0,
      "windKph": 14.9,
      "humidity": 62,
      "observedAt": "2026-07-18T01:15"
    },
    {
      "name": "Reykjavik",
      "lat": 64.1466,
      "lon": -21.9426,
      "tempC": 10.2,
      "weatherCode": 3,
      "windKph": 9,
      "humidity": 84,
      "observedAt": "2026-07-18T01:15"
    },
    {
      "name": "Singapore",
      "lat": 1.3521,
      "lon": 103.8198,
      "tempC": 28.4,
      "weatherCode": 2,
      "windKph": 4.8,
      "humidity": 80,
      "observedAt": "2026-07-18T01:15"
    },
    {
      "name": "Mexico City",
      "lat": 19.4326,
      "lon": -99.1332,
      "tempC": 16.2,
      "weatherCode": 53,
      "windKph": 2.3,
      "humidity": 85,
      "observedAt": "2026-07-18T01:15"
    },
    {
      "name": "Moscow",
      "lat": 55.7558,
      "lon": 37.6173,
      "tempC": 13.4,
      "weatherCode": 0,
      "windKph": 3.3,
      "humidity": 82,
      "observedAt": "2026-07-18T01:15"
    },
    {
      "name": "Nairobi",
      "lat": -1.2921,
      "lon": 36.8219,
      "tempC": 13.3,
      "weatherCode": 0,
      "windKph": 2.1,
      "humidity": 90,
      "observedAt": "2026-07-18T01:15"
    }
  ]
}
