{
  "generatedAt": "2026-07-24T06:17:58.861Z",
  "cities": [
    {
      "name": "San Francisco",
      "lat": 37.7749,
      "lon": -122.4194,
      "tempC": 14.7,
      "weatherCode": 0,
      "windKph": 24.8,
      "humidity": 87,
      "observedAt": "2026-07-24T06:15"
    },
    {
      "name": "New York",
      "lat": 40.7128,
      "lon": -74.006,
      "tempC": 17.6,
      "weatherCode": 0,
      "windKph": 3.3,
      "humidity": 78,
      "observedAt": "2026-07-24T06:15"
    },
    {
      "name": "London",
      "lat": 51.5074,
      "lon": -0.1278,
      "tempC": 18.6,
      "weatherCode": 1,
      "windKph": 5,
      "humidity": 63,
      "observedAt": "2026-07-24T06:15"
    },
    {
      "name": "Paris",
      "lat": 48.8566,
      "lon": 2.3522,
      "tempC": 17,
      "weatherCode": 3,
      "windKph": 6,
      "humidity": 67,
      "observedAt": "2026-07-24T06:15"
    },
    {
      "name": "Berlin",
      "lat": 52.52,
      "lon": 13.405,
      "tempC": 13.2,
      "weatherCode": 2,
      "windKph": 8.4,
      "humidity": 79,
      "observedAt": "2026-07-24T06:15"
    },
    {
      "name": "Tokyo",
      "lat": 35.6762,
      "lon": 139.6503,
      "tempC": 30.6,
      "weatherCode": 53,
      "windKph": 6.3,
      "humidity": 75,
      "observedAt": "2026-07-24T06:15"
    },
    {
      "name": "Sydney",
      "lat": -33.8688,
      "lon": 151.2093,
      "tempC": 14.4,
      "weatherCode": 0,
      "windKph": 2.9,
      "humidity": 53,
      "observedAt": "2026-07-24T06:15"
    },
    {
      "name": "São Paulo",
      "lat": -23.5505,
      "lon": -46.6333,
      "tempC": 13.7,
      "weatherCode": 55,
      "windKph": 6.7,
      "humidity": 92,
      "observedAt": "2026-07-24T06:15"
    },
    {
      "name": "Cape Town",
      "lat": -33.9249,
      "lon": 18.4241,
      "tempC": 7.6,
      "weatherCode": 3,
      "windKph": 2.4,
      "humidity": 100,
      "observedAt": "2026-07-24T06:15"
    },
    {
      "name": "Mumbai",
      "lat": 19.076,
      "lon": 72.8777,
      "tempC": 27.3,
      "weatherCode": 53,
      "windKph": 16.4,
      "humidity": 87,
      "observedAt": "2026-07-24T06:15"
    },
    {
      "name": "Dubai",
      "lat": 25.2048,
      "lon": 55.2708,
      "tempC": 39.6,
      "weatherCode": 0,
      "windKph": 5.3,
      "humidity": 16,
      "observedAt": "2026-07-24T06:15"
    },
    {
      "name": "Reykjavik",
      "lat": 64.1466,
      "lon": -21.9426,
      "tempC": 10.8,
      "weatherCode": 3,
      "windKph": 7.2,
      "humidity": 90,
      "observedAt": "2026-07-24T06:15"
    },
    {
      "name": "Singapore",
      "lat": 1.3521,
      "lon": 103.8198,
      "tempC": 31.5,
      "weatherCode": 51,
      "windKph": 10,
      "humidity": 63,
      "observedAt": "2026-07-24T06:15"
    },
    {
      "name": "Mexico City",
      "lat": 19.4326,
      "lon": -99.1332,
      "tempC": 17.1,
      "weatherCode": 3,
      "windKph": 7.7,
      "humidity": 64,
      "observedAt": "2026-07-24T06:15"
    },
    {
      "name": "Moscow",
      "lat": 55.7558,
      "lon": 37.6173,
      "tempC": 18.8,
      "weatherCode": 3,
      "windKph": 5.6,
      "humidity": 74,
      "observedAt": "2026-07-24T06:15"
    },
    {
      "name": "Nairobi",
      "lat": -1.2921,
      "lon": 36.8219,
      "tempC": 18,
      "weatherCode": 1,
      "windKph": 5.4,
      "humidity": 67,
      "observedAt": "2026-07-24T06:15"
    }
  ]
}
