{
  "generatedAt": "2026-07-17T02:46:33.753Z",
  "cities": [
    {
      "name": "San Francisco",
      "lat": 37.7749,
      "lon": -122.4194,
      "tempC": 15.8,
      "weatherCode": 0,
      "windKph": 24,
      "humidity": 78,
      "observedAt": "2026-07-17T02:45"
    },
    {
      "name": "New York",
      "lat": 40.7128,
      "lon": -74.006,
      "tempC": 22.9,
      "weatherCode": 3,
      "windKph": 8.7,
      "humidity": 69,
      "observedAt": "2026-07-17T02:45"
    },
    {
      "name": "London",
      "lat": 51.5074,
      "lon": -0.1278,
      "tempC": 18.6,
      "weatherCode": 0,
      "windKph": 8.3,
      "humidity": 68,
      "observedAt": "2026-07-17T02:45"
    },
    {
      "name": "Paris",
      "lat": 48.8566,
      "lon": 2.3522,
      "tempC": 20.9,
      "weatherCode": 2,
      "windKph": 6.2,
      "humidity": 72,
      "observedAt": "2026-07-17T02:45"
    },
    {
      "name": "Berlin",
      "lat": 52.52,
      "lon": 13.405,
      "tempC": 21,
      "weatherCode": 3,
      "windKph": 6.5,
      "humidity": 67,
      "observedAt": "2026-07-17T02:45"
    },
    {
      "name": "Tokyo",
      "lat": 35.6762,
      "lon": 139.6503,
      "tempC": 29.6,
      "weatherCode": 2,
      "windKph": 4.8,
      "humidity": 77,
      "observedAt": "2026-07-17T02:45"
    },
    {
      "name": "Sydney",
      "lat": -33.8688,
      "lon": 151.2093,
      "tempC": 15.5,
      "weatherCode": 2,
      "windKph": 15.3,
      "humidity": 79,
      "observedAt": "2026-07-17T02:45"
    },
    {
      "name": "São Paulo",
      "lat": -23.5505,
      "lon": -46.6333,
      "tempC": 15.6,
      "weatherCode": 0,
      "windKph": 8.5,
      "humidity": 55,
      "observedAt": "2026-07-17T02:45"
    },
    {
      "name": "Cape Town",
      "lat": -33.9249,
      "lon": 18.4241,
      "tempC": 11.1,
      "weatherCode": 3,
      "windKph": 5.6,
      "humidity": 100,
      "observedAt": "2026-07-17T02:45"
    },
    {
      "name": "Mumbai",
      "lat": 19.076,
      "lon": 72.8777,
      "tempC": 26.2,
      "weatherCode": 53,
      "windKph": 8,
      "humidity": 91,
      "observedAt": "2026-07-17T02:45"
    },
    {
      "name": "Dubai",
      "lat": 25.2048,
      "lon": 55.2708,
      "tempC": 30.8,
      "weatherCode": 0,
      "windKph": 17.7,
      "humidity": 69,
      "observedAt": "2026-07-17T02:45"
    },
    {
      "name": "Reykjavik",
      "lat": 64.1466,
      "lon": -21.9426,
      "tempC": 10.2,
      "weatherCode": 3,
      "windKph": 11.2,
      "humidity": 99,
      "observedAt": "2026-07-17T02:45"
    },
    {
      "name": "Singapore",
      "lat": 1.3521,
      "lon": 103.8198,
      "tempC": 28.6,
      "weatherCode": 55,
      "windKph": 12.4,
      "humidity": 76,
      "observedAt": "2026-07-17T02:45"
    },
    {
      "name": "Mexico City",
      "lat": 19.4326,
      "lon": -99.1332,
      "tempC": 17.4,
      "weatherCode": 1,
      "windKph": 7.6,
      "humidity": 70,
      "observedAt": "2026-07-17T02:45"
    },
    {
      "name": "Moscow",
      "lat": 55.7558,
      "lon": 37.6173,
      "tempC": 10.2,
      "weatherCode": 0,
      "windKph": 8.2,
      "humidity": 75,
      "observedAt": "2026-07-17T02:45"
    },
    {
      "name": "Nairobi",
      "lat": -1.2921,
      "lon": 36.8219,
      "tempC": 12.7,
      "weatherCode": 3,
      "windKph": 2.8,
      "humidity": 86,
      "observedAt": "2026-07-17T02:45"
    }
  ]
}
