{
  "generatedAt": "2026-07-20T01:57:08.290Z",
  "cities": [
    {
      "name": "San Francisco",
      "lat": 37.7749,
      "lon": -122.4194,
      "tempC": 15.6,
      "weatherCode": 3,
      "windKph": 23.1,
      "humidity": 88,
      "observedAt": "2026-07-20T01:45"
    },
    {
      "name": "New York",
      "lat": 40.7128,
      "lon": -74.006,
      "tempC": 19.9,
      "weatherCode": 0,
      "windKph": 8.9,
      "humidity": 63,
      "observedAt": "2026-07-20T01:45"
    },
    {
      "name": "London",
      "lat": 51.5074,
      "lon": -0.1278,
      "tempC": 15.4,
      "weatherCode": 1,
      "windKph": 7.6,
      "humidity": 58,
      "observedAt": "2026-07-20T01:45"
    },
    {
      "name": "Paris",
      "lat": 48.8566,
      "lon": 2.3522,
      "tempC": 14.9,
      "weatherCode": 0,
      "windKph": 9.6,
      "humidity": 63,
      "observedAt": "2026-07-20T01:45"
    },
    {
      "name": "Berlin",
      "lat": 52.52,
      "lon": 13.405,
      "tempC": 14,
      "weatherCode": 61,
      "windKph": 11.4,
      "humidity": 81,
      "observedAt": "2026-07-20T01:45"
    },
    {
      "name": "Tokyo",
      "lat": 35.6762,
      "lon": 139.6503,
      "tempC": 32.4,
      "weatherCode": 0,
      "windKph": 2.8,
      "humidity": 67,
      "observedAt": "2026-07-20T01:45"
    },
    {
      "name": "Sydney",
      "lat": -33.8688,
      "lon": 151.2093,
      "tempC": 15.7,
      "weatherCode": 1,
      "windKph": 4.2,
      "humidity": 70,
      "observedAt": "2026-07-20T01:45"
    },
    {
      "name": "São Paulo",
      "lat": -23.5505,
      "lon": -46.6333,
      "tempC": 18.3,
      "weatherCode": 0,
      "windKph": 12.6,
      "humidity": 54,
      "observedAt": "2026-07-20T01:45"
    },
    {
      "name": "Cape Town",
      "lat": -33.9249,
      "lon": 18.4241,
      "tempC": 10.7,
      "weatherCode": 3,
      "windKph": 6.2,
      "humidity": 97,
      "observedAt": "2026-07-20T01:45"
    },
    {
      "name": "Mumbai",
      "lat": 19.076,
      "lon": 72.8777,
      "tempC": 25.7,
      "weatherCode": 81,
      "windKph": 15,
      "humidity": 93,
      "observedAt": "2026-07-20T01:45"
    },
    {
      "name": "Dubai",
      "lat": 25.2048,
      "lon": 55.2708,
      "tempC": 29.9,
      "weatherCode": 0,
      "windKph": 7,
      "humidity": 56,
      "observedAt": "2026-07-20T01:45"
    },
    {
      "name": "Reykjavik",
      "lat": 64.1466,
      "lon": -21.9426,
      "tempC": 11,
      "weatherCode": 3,
      "windKph": 19.4,
      "humidity": 95,
      "observedAt": "2026-07-20T01:45"
    },
    {
      "name": "Singapore",
      "lat": 1.3521,
      "lon": 103.8198,
      "tempC": 29.5,
      "weatherCode": 2,
      "windKph": 8.1,
      "humidity": 72,
      "observedAt": "2026-07-20T01:45"
    },
    {
      "name": "Mexico City",
      "lat": 19.4326,
      "lon": -99.1332,
      "tempC": 16.8,
      "weatherCode": 3,
      "windKph": 2.7,
      "humidity": 75,
      "observedAt": "2026-07-20T01:45"
    },
    {
      "name": "Moscow",
      "lat": 55.7558,
      "lon": 37.6173,
      "tempC": 15.5,
      "weatherCode": 3,
      "windKph": 3.1,
      "humidity": 82,
      "observedAt": "2026-07-20T01:45"
    },
    {
      "name": "Nairobi",
      "lat": -1.2921,
      "lon": 36.8219,
      "tempC": 13.5,
      "weatherCode": 0,
      "windKph": 4.1,
      "humidity": 85,
      "observedAt": "2026-07-20T01:45"
    }
  ]
}
