{
  "generatedAt": "2026-07-17T13:41:48.525Z",
  "cities": [
    {
      "name": "San Francisco",
      "lat": 37.7749,
      "lon": -122.4194,
      "tempC": 12.7,
      "weatherCode": 45,
      "windKph": 7.8,
      "humidity": 95,
      "observedAt": "2026-07-17T13:30"
    },
    {
      "name": "New York",
      "lat": 40.7128,
      "lon": -74.006,
      "tempC": 25.3,
      "weatherCode": 0,
      "windKph": 7.9,
      "humidity": 54,
      "observedAt": "2026-07-17T13:30"
    },
    {
      "name": "London",
      "lat": 51.5074,
      "lon": -0.1278,
      "tempC": 27.9,
      "weatherCode": 1,
      "windKph": 6.1,
      "humidity": 31,
      "observedAt": "2026-07-17T13:30"
    },
    {
      "name": "Paris",
      "lat": 48.8566,
      "lon": 2.3522,
      "tempC": 26.8,
      "weatherCode": 3,
      "windKph": 10.3,
      "humidity": 51,
      "observedAt": "2026-07-17T13:30"
    },
    {
      "name": "Berlin",
      "lat": 52.52,
      "lon": 13.405,
      "tempC": 28.1,
      "weatherCode": 3,
      "windKph": 6.2,
      "humidity": 50,
      "observedAt": "2026-07-17T13:30"
    },
    {
      "name": "Tokyo",
      "lat": 35.6762,
      "lon": 139.6503,
      "tempC": 25,
      "weatherCode": 2,
      "windKph": 3.2,
      "humidity": 95,
      "observedAt": "2026-07-17T13:30"
    },
    {
      "name": "Sydney",
      "lat": -33.8688,
      "lon": 151.2093,
      "tempC": 12.2,
      "weatherCode": 1,
      "windKph": 6.8,
      "humidity": 96,
      "observedAt": "2026-07-17T13:30"
    },
    {
      "name": "São Paulo",
      "lat": -23.5505,
      "lon": -46.6333,
      "tempC": 20.4,
      "weatherCode": 0,
      "windKph": 6.7,
      "humidity": 37,
      "observedAt": "2026-07-17T13:30"
    },
    {
      "name": "Cape Town",
      "lat": -33.9249,
      "lon": 18.4241,
      "tempC": 18.3,
      "weatherCode": 3,
      "windKph": 4,
      "humidity": 81,
      "observedAt": "2026-07-17T13:30"
    },
    {
      "name": "Mumbai",
      "lat": 19.076,
      "lon": 72.8777,
      "tempC": 27.8,
      "weatherCode": 51,
      "windKph": 11.6,
      "humidity": 78,
      "observedAt": "2026-07-17T13:30"
    },
    {
      "name": "Dubai",
      "lat": 25.2048,
      "lon": 55.2708,
      "tempC": 36.5,
      "weatherCode": 0,
      "windKph": 14.5,
      "humidity": 64,
      "observedAt": "2026-07-17T13:30"
    },
    {
      "name": "Reykjavik",
      "lat": 64.1466,
      "lon": -21.9426,
      "tempC": 10.5,
      "weatherCode": 3,
      "windKph": 14.8,
      "humidity": 79,
      "observedAt": "2026-07-17T13:30"
    },
    {
      "name": "Singapore",
      "lat": 1.3521,
      "lon": 103.8198,
      "tempC": 26.2,
      "weatherCode": 1,
      "windKph": 3.4,
      "humidity": 90,
      "observedAt": "2026-07-17T13:30"
    },
    {
      "name": "Mexico City",
      "lat": 19.4326,
      "lon": -99.1332,
      "tempC": 14.8,
      "weatherCode": 3,
      "windKph": 5,
      "humidity": 86,
      "observedAt": "2026-07-17T13:30"
    },
    {
      "name": "Moscow",
      "lat": 55.7558,
      "lon": 37.6173,
      "tempC": 21.9,
      "weatherCode": 0,
      "windKph": 12.6,
      "humidity": 35,
      "observedAt": "2026-07-17T13:30"
    },
    {
      "name": "Nairobi",
      "lat": -1.2921,
      "lon": 36.8219,
      "tempC": 24,
      "weatherCode": 3,
      "windKph": 6.3,
      "humidity": 42,
      "observedAt": "2026-07-17T13:30"
    }
  ]
}
