{
  "generatedAt": "2026-07-18T12:49:57.625Z",
  "cities": [
    {
      "name": "San Francisco",
      "lat": 37.7749,
      "lon": -122.4194,
      "tempC": 12.7,
      "weatherCode": 2,
      "windKph": 13.3,
      "humidity": 95,
      "observedAt": "2026-07-18T12:45"
    },
    {
      "name": "New York",
      "lat": 40.7128,
      "lon": -74.006,
      "tempC": 23.7,
      "weatherCode": 3,
      "windKph": 12.8,
      "humidity": 75,
      "observedAt": "2026-07-18T12:45"
    },
    {
      "name": "London",
      "lat": 51.5074,
      "lon": -0.1278,
      "tempC": 23.1,
      "weatherCode": 2,
      "windKph": 12.6,
      "humidity": 37,
      "observedAt": "2026-07-18T12:45"
    },
    {
      "name": "Paris",
      "lat": 48.8566,
      "lon": 2.3522,
      "tempC": 28.8,
      "weatherCode": 0,
      "windKph": 7.1,
      "humidity": 31,
      "observedAt": "2026-07-18T12:45"
    },
    {
      "name": "Berlin",
      "lat": 52.52,
      "lon": 13.405,
      "tempC": 23.7,
      "weatherCode": 2,
      "windKph": 16.6,
      "humidity": 44,
      "observedAt": "2026-07-18T12:45"
    },
    {
      "name": "Tokyo",
      "lat": 35.6762,
      "lon": 139.6503,
      "tempC": 25.3,
      "weatherCode": 1,
      "windKph": 4.5,
      "humidity": 87,
      "observedAt": "2026-07-18T12:45"
    },
    {
      "name": "Sydney",
      "lat": -33.8688,
      "lon": 151.2093,
      "tempC": 13.8,
      "weatherCode": 3,
      "windKph": 5.1,
      "humidity": 79,
      "observedAt": "2026-07-18T12:45"
    },
    {
      "name": "São Paulo",
      "lat": -23.5505,
      "lon": -46.6333,
      "tempC": 18.3,
      "weatherCode": 0,
      "windKph": 13.4,
      "humidity": 51,
      "observedAt": "2026-07-18T12:45"
    },
    {
      "name": "Cape Town",
      "lat": -33.9249,
      "lon": 18.4241,
      "tempC": 14.7,
      "weatherCode": 3,
      "windKph": 12.8,
      "humidity": 90,
      "observedAt": "2026-07-18T12:45"
    },
    {
      "name": "Mumbai",
      "lat": 19.076,
      "lon": 72.8777,
      "tempC": 26.8,
      "weatherCode": 80,
      "windKph": 13.5,
      "humidity": 87,
      "observedAt": "2026-07-18T12:45"
    },
    {
      "name": "Dubai",
      "lat": 25.2048,
      "lon": 55.2708,
      "tempC": 37.2,
      "weatherCode": 0,
      "windKph": 14.1,
      "humidity": 52,
      "observedAt": "2026-07-18T12:45"
    },
    {
      "name": "Reykjavik",
      "lat": 64.1466,
      "lon": -21.9426,
      "tempC": 11.3,
      "weatherCode": 3,
      "windKph": 9.7,
      "humidity": 94,
      "observedAt": "2026-07-18T12:45"
    },
    {
      "name": "Singapore",
      "lat": 1.3521,
      "lon": 103.8198,
      "tempC": 24.8,
      "weatherCode": 3,
      "windKph": 3.9,
      "humidity": 97,
      "observedAt": "2026-07-18T12:45"
    },
    {
      "name": "Mexico City",
      "lat": 19.4326,
      "lon": -99.1332,
      "tempC": 13.3,
      "weatherCode": 3,
      "windKph": 4.3,
      "humidity": 90,
      "observedAt": "2026-07-18T12:45"
    },
    {
      "name": "Moscow",
      "lat": 55.7558,
      "lon": 37.6173,
      "tempC": 25.4,
      "weatherCode": 1,
      "windKph": 2.4,
      "humidity": 41,
      "observedAt": "2026-07-18T12:45"
    },
    {
      "name": "Nairobi",
      "lat": -1.2921,
      "lon": 36.8219,
      "tempC": 24.9,
      "weatherCode": 2,
      "windKph": 10,
      "humidity": 41,
      "observedAt": "2026-07-18T12:45"
    }
  ]
}
