{
  "generatedAt": "2026-07-19T09:43:52.443Z",
  "cities": [
    {
      "name": "San Francisco",
      "lat": 37.7749,
      "lon": -122.4194,
      "tempC": 12.4,
      "weatherCode": 3,
      "windKph": 9.5,
      "humidity": 98,
      "observedAt": "2026-07-19T09:30"
    },
    {
      "name": "New York",
      "lat": 40.7128,
      "lon": -74.006,
      "tempC": 21.4,
      "weatherCode": 0,
      "windKph": 13.2,
      "humidity": 85,
      "observedAt": "2026-07-19T09:30"
    },
    {
      "name": "London",
      "lat": 51.5074,
      "lon": -0.1278,
      "tempC": 17.7,
      "weatherCode": 1,
      "windKph": 11.9,
      "humidity": 45,
      "observedAt": "2026-07-19T09:30"
    },
    {
      "name": "Paris",
      "lat": 48.8566,
      "lon": 2.3522,
      "tempC": 20.3,
      "weatherCode": 1,
      "windKph": 11.2,
      "humidity": 48,
      "observedAt": "2026-07-19T09:30"
    },
    {
      "name": "Berlin",
      "lat": 52.52,
      "lon": 13.405,
      "tempC": 19.4,
      "weatherCode": 3,
      "windKph": 14.5,
      "humidity": 47,
      "observedAt": "2026-07-19T09:30"
    },
    {
      "name": "Tokyo",
      "lat": 35.6762,
      "lon": 139.6503,
      "tempC": 28,
      "weatherCode": 1,
      "windKph": 5.4,
      "humidity": 78,
      "observedAt": "2026-07-19T09:30"
    },
    {
      "name": "Sydney",
      "lat": -33.8688,
      "lon": 151.2093,
      "tempC": 13.6,
      "weatherCode": 1,
      "windKph": 1.8,
      "humidity": 80,
      "observedAt": "2026-07-19T09:30"
    },
    {
      "name": "São Paulo",
      "lat": -23.5505,
      "lon": -46.6333,
      "tempC": 14,
      "weatherCode": 0,
      "windKph": 10.5,
      "humidity": 64,
      "observedAt": "2026-07-19T09:30"
    },
    {
      "name": "Cape Town",
      "lat": -33.9249,
      "lon": 18.4241,
      "tempC": 13.7,
      "weatherCode": 55,
      "windKph": 17.6,
      "humidity": 93,
      "observedAt": "2026-07-19T09:30"
    },
    {
      "name": "Mumbai",
      "lat": 19.076,
      "lon": 72.8777,
      "tempC": 27.5,
      "weatherCode": 53,
      "windKph": 15.4,
      "humidity": 79,
      "observedAt": "2026-07-19T09:30"
    },
    {
      "name": "Dubai",
      "lat": 25.2048,
      "lon": 55.2708,
      "tempC": 39.3,
      "weatherCode": 0,
      "windKph": 14.6,
      "humidity": 45,
      "observedAt": "2026-07-19T09:30"
    },
    {
      "name": "Reykjavik",
      "lat": 64.1466,
      "lon": -21.9426,
      "tempC": 11.3,
      "weatherCode": 3,
      "windKph": 15.1,
      "humidity": 95,
      "observedAt": "2026-07-19T09:30"
    },
    {
      "name": "Singapore",
      "lat": 1.3521,
      "lon": 103.8198,
      "tempC": 31.7,
      "weatherCode": 0,
      "windKph": 8.2,
      "humidity": 54,
      "observedAt": "2026-07-19T09:30"
    },
    {
      "name": "Mexico City",
      "lat": 19.4326,
      "lon": -99.1332,
      "tempC": 13.1,
      "weatherCode": 3,
      "windKph": 2.1,
      "humidity": 100,
      "observedAt": "2026-07-19T09:30"
    },
    {
      "name": "Moscow",
      "lat": 55.7558,
      "lon": 37.6173,
      "tempC": 25.7,
      "weatherCode": 0,
      "windKph": 6.4,
      "humidity": 35,
      "observedAt": "2026-07-19T09:30"
    },
    {
      "name": "Nairobi",
      "lat": -1.2921,
      "lon": 36.8219,
      "tempC": 24.1,
      "weatherCode": 0,
      "windKph": 8.4,
      "humidity": 42,
      "observedAt": "2026-07-19T09:30"
    }
  ]
}
