{
  "generatedAt": "2026-07-19T16:43:19.175Z",
  "cities": [
    {
      "name": "San Francisco",
      "lat": 37.7749,
      "lon": -122.4194,
      "tempC": 14.5,
      "weatherCode": 3,
      "windKph": 6.8,
      "humidity": 91,
      "observedAt": "2026-07-19T16:30"
    },
    {
      "name": "New York",
      "lat": 40.7128,
      "lon": -74.006,
      "tempC": 26.4,
      "weatherCode": 0,
      "windKph": 18.8,
      "humidity": 40,
      "observedAt": "2026-07-19T16:30"
    },
    {
      "name": "London",
      "lat": 51.5074,
      "lon": -0.1278,
      "tempC": 22.5,
      "weatherCode": 2,
      "windKph": 11.5,
      "humidity": 30,
      "observedAt": "2026-07-19T16:30"
    },
    {
      "name": "Paris",
      "lat": 48.8566,
      "lon": 2.3522,
      "tempC": 24,
      "weatherCode": 3,
      "windKph": 10.9,
      "humidity": 31,
      "observedAt": "2026-07-19T16:30"
    },
    {
      "name": "Berlin",
      "lat": 52.52,
      "lon": 13.405,
      "tempC": 16.9,
      "weatherCode": 80,
      "windKph": 16.2,
      "humidity": 71,
      "observedAt": "2026-07-19T16:30"
    },
    {
      "name": "Tokyo",
      "lat": 35.6762,
      "lon": 139.6503,
      "tempC": 24.6,
      "weatherCode": 0,
      "windKph": 2.4,
      "humidity": 95,
      "observedAt": "2026-07-19T16:30"
    },
    {
      "name": "Sydney",
      "lat": -33.8688,
      "lon": 151.2093,
      "tempC": 10,
      "weatherCode": 3,
      "windKph": 6,
      "humidity": 97,
      "observedAt": "2026-07-19T16:30"
    },
    {
      "name": "São Paulo",
      "lat": -23.5505,
      "lon": -46.6333,
      "tempC": 24.5,
      "weatherCode": 0,
      "windKph": 16.2,
      "humidity": 32,
      "observedAt": "2026-07-19T16:30"
    },
    {
      "name": "Cape Town",
      "lat": -33.9249,
      "lon": 18.4241,
      "tempC": 12.5,
      "weatherCode": 0,
      "windKph": 3.2,
      "humidity": 98,
      "observedAt": "2026-07-19T16:30"
    },
    {
      "name": "Mumbai",
      "lat": 19.076,
      "lon": 72.8777,
      "tempC": 26,
      "weatherCode": 53,
      "windKph": 11.5,
      "humidity": 93,
      "observedAt": "2026-07-19T16:30"
    },
    {
      "name": "Dubai",
      "lat": 25.2048,
      "lon": 55.2708,
      "tempC": 33.7,
      "weatherCode": 0,
      "windKph": 3.8,
      "humidity": 75,
      "observedAt": "2026-07-19T16:30"
    },
    {
      "name": "Reykjavik",
      "lat": 64.1466,
      "lon": -21.9426,
      "tempC": 11.5,
      "weatherCode": 3,
      "windKph": 14,
      "humidity": 96,
      "observedAt": "2026-07-19T16:30"
    },
    {
      "name": "Singapore",
      "lat": 1.3521,
      "lon": 103.8198,
      "tempC": 26.4,
      "weatherCode": 0,
      "windKph": 3.2,
      "humidity": 86,
      "observedAt": "2026-07-19T16:30"
    },
    {
      "name": "Mexico City",
      "lat": 19.4326,
      "lon": -99.1332,
      "tempC": 19.5,
      "weatherCode": 1,
      "windKph": 2.3,
      "humidity": 60,
      "observedAt": "2026-07-19T16:30"
    },
    {
      "name": "Moscow",
      "lat": 55.7558,
      "lon": 37.6173,
      "tempC": 24.8,
      "weatherCode": 0,
      "windKph": 4.3,
      "humidity": 44,
      "observedAt": "2026-07-19T16:30"
    },
    {
      "name": "Nairobi",
      "lat": -1.2921,
      "lon": 36.8219,
      "tempC": 22.2,
      "weatherCode": 2,
      "windKph": 8.1,
      "humidity": 50,
      "observedAt": "2026-07-19T16:30"
    }
  ]
}
