{
  "generatedAt": "2026-07-17T19:13:00.437Z",
  "cities": [
    {
      "name": "San Francisco",
      "lat": 37.7749,
      "lon": -122.4194,
      "tempC": 16.8,
      "weatherCode": 2,
      "windKph": 17.6,
      "humidity": 80,
      "observedAt": "2026-07-17T19:00"
    },
    {
      "name": "New York",
      "lat": 40.7128,
      "lon": -74.006,
      "tempC": 31.8,
      "weatherCode": 0,
      "windKph": 12.4,
      "humidity": 20,
      "observedAt": "2026-07-17T19:00"
    },
    {
      "name": "London",
      "lat": 51.5074,
      "lon": -0.1278,
      "tempC": 27.4,
      "weatherCode": 1,
      "windKph": 10.1,
      "humidity": 33,
      "observedAt": "2026-07-17T19:00"
    },
    {
      "name": "Paris",
      "lat": 48.8566,
      "lon": 2.3522,
      "tempC": 26,
      "weatherCode": 1,
      "windKph": 9.3,
      "humidity": 45,
      "observedAt": "2026-07-17T19:00"
    },
    {
      "name": "Berlin",
      "lat": 52.52,
      "lon": 13.405,
      "tempC": 24.4,
      "weatherCode": 3,
      "windKph": 15.3,
      "humidity": 62,
      "observedAt": "2026-07-17T19:00"
    },
    {
      "name": "Tokyo",
      "lat": 35.6762,
      "lon": 139.6503,
      "tempC": 23.9,
      "weatherCode": 51,
      "windKph": 4.4,
      "humidity": 94,
      "observedAt": "2026-07-17T19:00"
    },
    {
      "name": "Sydney",
      "lat": -33.8688,
      "lon": 151.2093,
      "tempC": 12.1,
      "weatherCode": 1,
      "windKph": 6,
      "humidity": 95,
      "observedAt": "2026-07-17T19:00"
    },
    {
      "name": "São Paulo",
      "lat": -23.5505,
      "lon": -46.6333,
      "tempC": 23.3,
      "weatherCode": 0,
      "windKph": 11,
      "humidity": 32,
      "observedAt": "2026-07-17T19:00"
    },
    {
      "name": "Cape Town",
      "lat": -33.9249,
      "lon": 18.4241,
      "tempC": 13.2,
      "weatherCode": 3,
      "windKph": 3.2,
      "humidity": 97,
      "observedAt": "2026-07-17T19:00"
    },
    {
      "name": "Mumbai",
      "lat": 19.076,
      "lon": 72.8777,
      "tempC": 25.5,
      "weatherCode": 55,
      "windKph": 2.3,
      "humidity": 93,
      "observedAt": "2026-07-17T19:00"
    },
    {
      "name": "Dubai",
      "lat": 25.2048,
      "lon": 55.2708,
      "tempC": 33.4,
      "weatherCode": 0,
      "windKph": 12,
      "humidity": 54,
      "observedAt": "2026-07-17T19:00"
    },
    {
      "name": "Reykjavik",
      "lat": 64.1466,
      "lon": -21.9426,
      "tempC": 11.1,
      "weatherCode": 3,
      "windKph": 9.7,
      "humidity": 82,
      "observedAt": "2026-07-17T19:00"
    },
    {
      "name": "Singapore",
      "lat": 1.3521,
      "lon": 103.8198,
      "tempC": 25.7,
      "weatherCode": 1,
      "windKph": 2.7,
      "humidity": 93,
      "observedAt": "2026-07-17T19:00"
    },
    {
      "name": "Mexico City",
      "lat": 19.4326,
      "lon": -99.1332,
      "tempC": 22.2,
      "weatherCode": 51,
      "windKph": 0.9,
      "humidity": 49,
      "observedAt": "2026-07-17T19:00"
    },
    {
      "name": "Moscow",
      "lat": 55.7558,
      "lon": 37.6173,
      "tempC": 17.5,
      "weatherCode": 0,
      "windKph": 3.8,
      "humidity": 63,
      "observedAt": "2026-07-17T19:00"
    },
    {
      "name": "Nairobi",
      "lat": -1.2921,
      "lon": 36.8219,
      "tempC": 16.7,
      "weatherCode": 3,
      "windKph": 3.1,
      "humidity": 79,
      "observedAt": "2026-07-17T19:00"
    }
  ]
}
