{
  "generatedAt": "2026-07-22T13:20:17.074Z",
  "cities": [
    {
      "name": "San Francisco",
      "lat": 37.7749,
      "lon": -122.4194,
      "tempC": 17.2,
      "weatherCode": 0,
      "windKph": 9.3,
      "humidity": 90,
      "observedAt": "2026-07-22T13:15"
    },
    {
      "name": "New York",
      "lat": 40.7128,
      "lon": -74.006,
      "tempC": 24.2,
      "weatherCode": 2,
      "windKph": 16,
      "humidity": 87,
      "observedAt": "2026-07-22T13:15"
    },
    {
      "name": "London",
      "lat": 51.5074,
      "lon": -0.1278,
      "tempC": 25.8,
      "weatherCode": 1,
      "windKph": 5,
      "humidity": 37,
      "observedAt": "2026-07-22T13:15"
    },
    {
      "name": "Paris",
      "lat": 48.8566,
      "lon": 2.3522,
      "tempC": 25.3,
      "weatherCode": 1,
      "windKph": 11.3,
      "humidity": 40,
      "observedAt": "2026-07-22T13:15"
    },
    {
      "name": "Berlin",
      "lat": 52.52,
      "lon": 13.405,
      "tempC": 17.6,
      "weatherCode": 3,
      "windKph": 13.9,
      "humidity": 66,
      "observedAt": "2026-07-22T13:15"
    },
    {
      "name": "Tokyo",
      "lat": 35.6762,
      "lon": 139.6503,
      "tempC": 28.4,
      "weatherCode": 1,
      "windKph": 1.9,
      "humidity": 88,
      "observedAt": "2026-07-22T13:15"
    },
    {
      "name": "Sydney",
      "lat": -33.8688,
      "lon": 151.2093,
      "tempC": 12,
      "weatherCode": 0,
      "windKph": 11.4,
      "humidity": 74,
      "observedAt": "2026-07-22T13:15"
    },
    {
      "name": "São Paulo",
      "lat": -23.5505,
      "lon": -46.6333,
      "tempC": 24.3,
      "weatherCode": 2,
      "windKph": 12.6,
      "humidity": 37,
      "observedAt": "2026-07-22T13:15"
    },
    {
      "name": "Cape Town",
      "lat": -33.9249,
      "lon": 18.4241,
      "tempC": 14.9,
      "weatherCode": 3,
      "windKph": 15.7,
      "humidity": 69,
      "observedAt": "2026-07-22T13:15"
    },
    {
      "name": "Mumbai",
      "lat": 19.076,
      "lon": 72.8777,
      "tempC": 26,
      "weatherCode": 95,
      "windKph": 27.4,
      "humidity": 89,
      "observedAt": "2026-07-22T13:15"
    },
    {
      "name": "Dubai",
      "lat": 25.2048,
      "lon": 55.2708,
      "tempC": 35.8,
      "weatherCode": 0,
      "windKph": 18,
      "humidity": 59,
      "observedAt": "2026-07-22T13:15"
    },
    {
      "name": "Reykjavik",
      "lat": 64.1466,
      "lon": -21.9426,
      "tempC": 11.5,
      "weatherCode": 51,
      "windKph": 28.4,
      "humidity": 97,
      "observedAt": "2026-07-22T13:15"
    },
    {
      "name": "Singapore",
      "lat": 1.3521,
      "lon": 103.8198,
      "tempC": 24.6,
      "weatherCode": 3,
      "windKph": 5.9,
      "humidity": 94,
      "observedAt": "2026-07-22T13:15"
    },
    {
      "name": "Mexico City",
      "lat": 19.4326,
      "lon": -99.1332,
      "tempC": 13.5,
      "weatherCode": 1,
      "windKph": 3.1,
      "humidity": 88,
      "observedAt": "2026-07-22T13:15"
    },
    {
      "name": "Moscow",
      "lat": 55.7558,
      "lon": 37.6173,
      "tempC": 23.6,
      "weatherCode": 3,
      "windKph": 9.8,
      "humidity": 46,
      "observedAt": "2026-07-22T13:15"
    },
    {
      "name": "Nairobi",
      "lat": -1.2921,
      "lon": 36.8219,
      "tempC": 24.8,
      "weatherCode": 1,
      "windKph": 7.6,
      "humidity": 39,
      "observedAt": "2026-07-22T13:15"
    }
  ]
}
