{
  "generatedAt": "2026-07-23T20:50:27.359Z",
  "cities": [
    {
      "name": "San Francisco",
      "lat": 37.7749,
      "lon": -122.4194,
      "tempC": 19.8,
      "weatherCode": 0,
      "windKph": 25.6,
      "humidity": 74,
      "observedAt": "2026-07-23T20:45"
    },
    {
      "name": "New York",
      "lat": 40.7128,
      "lon": -74.006,
      "tempC": 27.4,
      "weatherCode": 1,
      "windKph": 4.3,
      "humidity": 36,
      "observedAt": "2026-07-23T20:45"
    },
    {
      "name": "London",
      "lat": 51.5074,
      "lon": -0.1278,
      "tempC": 24,
      "weatherCode": 3,
      "windKph": 16.9,
      "humidity": 52,
      "observedAt": "2026-07-23T20:45"
    },
    {
      "name": "Paris",
      "lat": 48.8566,
      "lon": 2.3522,
      "tempC": 22,
      "weatherCode": 0,
      "windKph": 9.9,
      "humidity": 46,
      "observedAt": "2026-07-23T20:45"
    },
    {
      "name": "Berlin",
      "lat": 52.52,
      "lon": 13.405,
      "tempC": 17.2,
      "weatherCode": 0,
      "windKph": 11,
      "humidity": 69,
      "observedAt": "2026-07-23T20:45"
    },
    {
      "name": "Tokyo",
      "lat": 35.6762,
      "lon": 139.6503,
      "tempC": 24.1,
      "weatherCode": 2,
      "windKph": 2.2,
      "humidity": 94,
      "observedAt": "2026-07-23T20:45"
    },
    {
      "name": "Sydney",
      "lat": -33.8688,
      "lon": 151.2093,
      "tempC": 6.7,
      "weatherCode": 0,
      "windKph": 17.2,
      "humidity": 66,
      "observedAt": "2026-07-23T20:45"
    },
    {
      "name": "São Paulo",
      "lat": -23.5505,
      "lon": -46.6333,
      "tempC": 17,
      "weatherCode": 3,
      "windKph": 12.2,
      "humidity": 82,
      "observedAt": "2026-07-23T20:45"
    },
    {
      "name": "Cape Town",
      "lat": -33.9249,
      "lon": 18.4241,
      "tempC": 12,
      "weatherCode": 0,
      "windKph": 10.9,
      "humidity": 86,
      "observedAt": "2026-07-23T20:45"
    },
    {
      "name": "Mumbai",
      "lat": 19.076,
      "lon": 72.8777,
      "tempC": 26.3,
      "weatherCode": 55,
      "windKph": 24,
      "humidity": 87,
      "observedAt": "2026-07-23T20:45"
    },
    {
      "name": "Dubai",
      "lat": 25.2048,
      "lon": 55.2708,
      "tempC": 31.4,
      "weatherCode": 0,
      "windKph": 5.1,
      "humidity": 39,
      "observedAt": "2026-07-23T20:45"
    },
    {
      "name": "Reykjavik",
      "lat": 64.1466,
      "lon": -21.9426,
      "tempC": 12.3,
      "weatherCode": 1,
      "windKph": 18,
      "humidity": 79,
      "observedAt": "2026-07-23T20:45"
    },
    {
      "name": "Singapore",
      "lat": 1.3521,
      "lon": 103.8198,
      "tempC": 25.4,
      "weatherCode": 2,
      "windKph": 5.3,
      "humidity": 93,
      "observedAt": "2026-07-23T20:45"
    },
    {
      "name": "Mexico City",
      "lat": 19.4326,
      "lon": -99.1332,
      "tempC": 27.6,
      "weatherCode": 3,
      "windKph": 5.2,
      "humidity": 22,
      "observedAt": "2026-07-23T20:45"
    },
    {
      "name": "Moscow",
      "lat": 55.7558,
      "lon": 37.6173,
      "tempC": 17,
      "weatherCode": 0,
      "windKph": 2.6,
      "humidity": 76,
      "observedAt": "2026-07-23T20:45"
    },
    {
      "name": "Nairobi",
      "lat": -1.2921,
      "lon": 36.8219,
      "tempC": 17,
      "weatherCode": 1,
      "windKph": 2.6,
      "humidity": 79,
      "observedAt": "2026-07-23T20:45"
    }
  ]
}
