{
  "generatedAt": "2026-07-18T09:15:01.526Z",
  "cities": [
    {
      "name": "San Francisco",
      "lat": 37.7749,
      "lon": -122.4194,
      "tempC": 13,
      "weatherCode": 3,
      "windKph": 14.1,
      "humidity": 95,
      "observedAt": "2026-07-18T09:00"
    },
    {
      "name": "New York",
      "lat": 40.7128,
      "lon": -74.006,
      "tempC": 21.2,
      "weatherCode": 1,
      "windKph": 7.1,
      "humidity": 84,
      "observedAt": "2026-07-18T09:15"
    },
    {
      "name": "London",
      "lat": 51.5074,
      "lon": -0.1278,
      "tempC": 18.8,
      "weatherCode": 0,
      "windKph": 10.1,
      "humidity": 52,
      "observedAt": "2026-07-18T09:15"
    },
    {
      "name": "Paris",
      "lat": 48.8566,
      "lon": 2.3522,
      "tempC": 24.2,
      "weatherCode": 0,
      "windKph": 2.2,
      "humidity": 49,
      "observedAt": "2026-07-18T09:15"
    },
    {
      "name": "Berlin",
      "lat": 52.52,
      "lon": 13.405,
      "tempC": 21.3,
      "weatherCode": 2,
      "windKph": 18.8,
      "humidity": 59,
      "observedAt": "2026-07-18T09:15"
    },
    {
      "name": "Tokyo",
      "lat": 35.6762,
      "lon": 139.6503,
      "tempC": 27,
      "weatherCode": 1,
      "windKph": 3.8,
      "humidity": 78,
      "observedAt": "2026-07-18T09:15"
    },
    {
      "name": "Sydney",
      "lat": -33.8688,
      "lon": 151.2093,
      "tempC": 14.7,
      "weatherCode": 2,
      "windKph": 8.4,
      "humidity": 80,
      "observedAt": "2026-07-18T09:15"
    },
    {
      "name": "São Paulo",
      "lat": -23.5505,
      "lon": -46.6333,
      "tempC": 13.5,
      "weatherCode": 0,
      "windKph": 12.6,
      "humidity": 64,
      "observedAt": "2026-07-18T09:15"
    },
    {
      "name": "Cape Town",
      "lat": -33.9249,
      "lon": 18.4241,
      "tempC": 13.7,
      "weatherCode": 3,
      "windKph": 5.9,
      "humidity": 98,
      "observedAt": "2026-07-18T09:15"
    },
    {
      "name": "Mumbai",
      "lat": 19.076,
      "lon": 72.8777,
      "tempC": 29.3,
      "weatherCode": 53,
      "windKph": 14.8,
      "humidity": 72,
      "observedAt": "2026-07-18T09:15"
    },
    {
      "name": "Dubai",
      "lat": 25.2048,
      "lon": 55.2708,
      "tempC": 39.4,
      "weatherCode": 0,
      "windKph": 13.8,
      "humidity": 44,
      "observedAt": "2026-07-18T09:15"
    },
    {
      "name": "Reykjavik",
      "lat": 64.1466,
      "lon": -21.9426,
      "tempC": 10.6,
      "weatherCode": 3,
      "windKph": 6.5,
      "humidity": 89,
      "observedAt": "2026-07-18T09:15"
    },
    {
      "name": "Singapore",
      "lat": 1.3521,
      "lon": 103.8198,
      "tempC": 29.8,
      "weatherCode": 51,
      "windKph": 4.4,
      "humidity": 66,
      "observedAt": "2026-07-18T09:15"
    },
    {
      "name": "Mexico City",
      "lat": 19.4326,
      "lon": -99.1332,
      "tempC": 13.9,
      "weatherCode": 3,
      "windKph": 7.6,
      "humidity": 88,
      "observedAt": "2026-07-18T09:15"
    },
    {
      "name": "Moscow",
      "lat": 55.7558,
      "lon": 37.6173,
      "tempC": 23.2,
      "weatherCode": 1,
      "windKph": 5,
      "humidity": 47,
      "observedAt": "2026-07-18T09:15"
    },
    {
      "name": "Nairobi",
      "lat": -1.2921,
      "lon": 36.8219,
      "tempC": 24.1,
      "weatherCode": 3,
      "windKph": 6.2,
      "humidity": 48,
      "observedAt": "2026-07-18T09:15"
    }
  ]
}
