{
  "generatedAt": "2026-07-21T10:14:28.609Z",
  "cities": [
    {
      "name": "San Francisco",
      "lat": 37.7749,
      "lon": -122.4194,
      "tempC": 15.5,
      "weatherCode": 3,
      "windKph": 3.1,
      "humidity": 80,
      "observedAt": "2026-07-21T10:00"
    },
    {
      "name": "New York",
      "lat": 40.7128,
      "lon": -74.006,
      "tempC": 21.3,
      "weatherCode": 3,
      "windKph": 12.6,
      "humidity": 88,
      "observedAt": "2026-07-21T10:00"
    },
    {
      "name": "London",
      "lat": 51.5074,
      "lon": -0.1278,
      "tempC": 19.2,
      "weatherCode": 3,
      "windKph": 8.6,
      "humidity": 59,
      "observedAt": "2026-07-21T10:00"
    },
    {
      "name": "Paris",
      "lat": 48.8566,
      "lon": 2.3522,
      "tempC": 21,
      "weatherCode": 0,
      "windKph": 10.3,
      "humidity": 50,
      "observedAt": "2026-07-21T10:00"
    },
    {
      "name": "Berlin",
      "lat": 52.52,
      "lon": 13.405,
      "tempC": 20.5,
      "weatherCode": 3,
      "windKph": 11.8,
      "humidity": 49,
      "observedAt": "2026-07-21T10:00"
    },
    {
      "name": "Tokyo",
      "lat": 35.6762,
      "lon": 139.6503,
      "tempC": 30.5,
      "weatherCode": 0,
      "windKph": 3.6,
      "humidity": 73,
      "observedAt": "2026-07-21T10:00"
    },
    {
      "name": "Sydney",
      "lat": -33.8688,
      "lon": 151.2093,
      "tempC": 14,
      "weatherCode": 2,
      "windKph": 11,
      "humidity": 89,
      "observedAt": "2026-07-21T10:00"
    },
    {
      "name": "São Paulo",
      "lat": -23.5505,
      "lon": -46.6333,
      "tempC": 16.1,
      "weatherCode": 0,
      "windKph": 6.2,
      "humidity": 60,
      "observedAt": "2026-07-21T10:00"
    },
    {
      "name": "Cape Town",
      "lat": -33.9249,
      "lon": 18.4241,
      "tempC": 14.2,
      "weatherCode": 0,
      "windKph": 3.6,
      "humidity": 85,
      "observedAt": "2026-07-21T10:00"
    },
    {
      "name": "Mumbai",
      "lat": 19.076,
      "lon": 72.8777,
      "tempC": 27.3,
      "weatherCode": 51,
      "windKph": 21,
      "humidity": 80,
      "observedAt": "2026-07-21T10:00"
    },
    {
      "name": "Dubai",
      "lat": 25.2048,
      "lon": 55.2708,
      "tempC": 38.6,
      "weatherCode": 0,
      "windKph": 17.1,
      "humidity": 54,
      "observedAt": "2026-07-21T10:00"
    },
    {
      "name": "Reykjavik",
      "lat": 64.1466,
      "lon": -21.9426,
      "tempC": 10.9,
      "weatherCode": 45,
      "windKph": 7.9,
      "humidity": 100,
      "observedAt": "2026-07-21T10:00"
    },
    {
      "name": "Singapore",
      "lat": 1.3521,
      "lon": 103.8198,
      "tempC": 28.7,
      "weatherCode": 2,
      "windKph": 9.1,
      "humidity": 74,
      "observedAt": "2026-07-21T10:00"
    },
    {
      "name": "Mexico City",
      "lat": 19.4326,
      "lon": -99.1332,
      "tempC": 14.4,
      "weatherCode": 2,
      "windKph": 3,
      "humidity": 92,
      "observedAt": "2026-07-21T10:00"
    },
    {
      "name": "Moscow",
      "lat": 55.7558,
      "lon": 37.6173,
      "tempC": 23,
      "weatherCode": 95,
      "windKph": 6.4,
      "humidity": 77,
      "observedAt": "2026-07-21T10:00"
    },
    {
      "name": "Nairobi",
      "lat": -1.2921,
      "lon": 36.8219,
      "tempC": 24.5,
      "weatherCode": 1,
      "windKph": 8.5,
      "humidity": 45,
      "observedAt": "2026-07-21T10:00"
    }
  ]
}
